[
  {
    "name": "New York, NY",
    "lat": 40.7128,
    "lon": -74.0060
  },
  {
    "name": "Los Angeles, CA",
    "lat": 34.0522,
    "lon": -118.2437
  },
  {
    "name": "Chicago, IL",
    "lat": 41.8781,
    "lon": -87.6298
  },
  {
    "name": "Miami, FL",
    "lat": 25.7617,
    "lon": -80.1918
  },
  {
    "name": "Seattle, WA",
    "lat": 47.6062,
    "lon": -122.3321
  },
  {
    "name": "Austin, TX",
    "lat": 30.2672,
    "lon": -97.7431
  }
] 