[
  {
    "name": "New York, NY",
    "lat": 40.7128,
    "lon": -74.0060
  },
  {
    "name": "Los Angeles, CA",
    "lat": 34.0522,
    "lon": -118.2437
  },
  {
    "name": "Chicago, IL",
    "lat": 41.8781,
    "lon": -87.6298
  },
  {
    "name": "Houston, TX",
    "lat": 29.7604,
    "lon": -95.3698
  },
  {
    "name": "Phoenix, AZ",
    "lat": 33.4484,
    "lon": -112.0740
  },
  {
    "name": "Philadelphia, PA",
    "lat": 39.9526,
    "lon": -75.1652
  },
  {
    "name": "San Antonio, TX",
    "lat": 29.4241,
    "lon": -98.4936
  },
  {
    "name": "San Diego, CA",
    "lat": 32.7157,
    "lon": -117.1611
  },
  {
    "name": "Dallas, TX",
    "lat": 32.7767,
    "lon": -96.7970
  },
  {
    "name": "San Jose, CA",
    "lat": 37.3382,
    "lon": -121.8863
  },
  {
    "name": "Kansas City, MO",
    "lat": 39.0997,
    "lon": -94.5786
  },
  {
    "name": "Seattle, WA",
    "lat": 47.6062,
    "lon": -122.3321
  },
  {
    "name": "Denver, CO",
    "lat": 39.7392,
    "lon": -104.9903
  },
  {
    "name": "Boston, MA",
    "lat": 42.3601,
    "lon": -71.0589
  },
  {
    "name": "Atlanta, GA",
    "lat": 33.7490,
    "lon": -84.3880
  },
  {
    "name": "Miami, FL",
    "lat": 25.7617,
    "lon": -80.1918
  },
  {
    "name": "Portland, OR",
    "lat": 45.5155,
    "lon": -122.6789
  },
  {
    "name": "Las Vegas, NV",
    "lat": 36.1699,
    "lon": -115.1398
  },
  {
    "name": "Minneapolis, MN",
    "lat": 44.9778,
    "lon": -93.2650
  },
  {
    "name": "Detroit, MI",
    "lat": 42.3314,
    "lon": -83.0458
  }
] 